station_id,station_name,county_name,town_name,twd67_lat,twd67_lon,wgs84_lat,wgs84_lon,distance_m
C0C800,四稜,桃園市,復興區,24.6796,121.4211,24.64733,121.4293,3682.692142709006
C0S840,南田,臺東縣,達仁鄉,22.291944,120.881944,22.279725,120.889208,1550.685877200511
C0I110,竹山,南投縣,竹山鎮,23.764722,120.677778,23.761225,120.688156,1125.4551198354145
C0FA70,大雪山埡口,臺中市,和平區,24.2744,121.0224,24.26867,121.03062,1048.9174933582908
C2V250,甲仙,高雄市,甲仙區,23.081667,120.5825,23.080106,120.591758,962.8133899633864
C0F9N0,大里,臺中市,大里區,24.094389,120.692194,24.092464,120.701378,956.505144888611
C0AD50,鶯歌,新北市,鶯歌區,24.953,121.33725,24.951533,121.346294,926.256311145788
C0G660,溪湖,彰化縣,溪湖鎮,23.95175,120.471056,23.94835,120.479122,902.6619851307408
C0H960,草屯,南投縣,草屯鎮,23.975444,120.672194,23.973672,120.68085,901.2663960086934
C0F9T0,西屯,臺中市,西屯區,24.182028,120.632861,24.179494,120.641275,898.8105739281208
C0AD10,八里,新北市,八里區,25.15225,121.395306,25.150211,121.403947,898.8039922986349
C0C630,大溪,桃園市,大溪區,24.884722,121.256944,24.882853,121.265547,892.3393791552631
C0X080,佳里,臺南市,佳里區,23.175,120.136667,23.173039,120.145086,887.8100671912757
C2M410,馬頭山,嘉義縣,大埔鄉,23.326389,120.573611,23.324361,120.582017,887.4410176163503
CAAD80,國五N008K,新北市,石碇區,24.985201,121.659868,24.982411,121.668089,884.768600159089
C0I010,廬山,南投縣,仁愛鄉,24.035,121.173333,24.033311,121.181808,880.9281417027164
C0V360,內門,高雄市,內門區,22.976944,120.458333,22.975481,120.466769,878.8108970835921
C2A660,瑞芳,新北市,瑞芳區,25.114861,121.792639,25.113169,121.801147,877.0298551380079
C0F9M0,豐原,臺中市,豐原區,24.256306,120.712333,24.254322,120.720692,875.6727789935062
C0T9M0,靜浦,花蓮縣,豐濱鄉,23.456944,121.486667,23.455167,121.495028,875.465502865882
C0A550,泰平,新北市,雙溪區,24.973056,121.815278,24.971197,121.823711,874.8164640113789
C0D580,寶山,新竹縣,寶山鄉,24.736722,121.016769,24.735006,121.025192,871.7965912537852
C0V210,復興,高雄市,桃源區,23.224167,120.797778,23.222403,120.806089,871.6197829613213
C0H9C0,合歡山頂,南投縣,仁愛鄉,24.144778,121.264083,24.143442,121.272547,871.5750252932431
C0T9F0,水璉,花蓮縣,壽豐鄉,23.798889,121.534167,23.797131,121.542514,871.4355073877912
C0G880,二水,彰化縣,二水鄉,23.812778,120.609028,23.810742,120.6173,871.4293052357481
C0A870,五指山,新北市,汐止區,25.133889,121.600278,25.132153,121.608692,868.733746288148
C0A570,桶後,新北市,烏來區,24.850056,121.589639,24.848222,121.597992,867.1405393436647
C0U720,南山,宜蘭縣,大同鄉,24.439167,121.373333,24.437419,121.381669,865.9707077597915
C0A940,金山,新北市,金山區,25.225278,121.635556,25.223628,121.643967,865.743327178791
C0G900,線西,彰化縣,線西鄉,24.141081,120.435381,24.143358,120.443536,865.3489790300022
C2E540,龍溪,苗栗縣,後龍鎮,24.608056,120.775556,24.606489,120.783933,864.6249010653264
C0H990,昆陽,南投縣,仁愛鄉,24.123139,121.265361,24.121322,121.273642,864.3418966820695
C0V490,新興,高雄市,新興區,22.629111,120.290583,22.627422,120.298803,864.3126596542594
C2A560,福山,新北市,烏來區,24.778333,121.494583,24.776203,121.502811,863.7934619953603
C0T900,西林,花蓮縣,萬榮鄉,23.813667,121.433194,23.8119,121.441458,863.3423857176687
C0I080,信義,南投縣,信義鄉,23.691389,120.842778,23.689694,120.851036,861.7300004143796
C0T790,大禹嶺,花蓮縣,秀林鄉,24.187944,121.307833,24.186117,121.316086,861.4279987865419
C0A980,社子,臺北市,士林區,25.111389,121.461389,25.109508,121.469681,860.6893453605802
C0AD30,蘆洲,新北市,蘆洲區,25.088528,121.464056,25.086594,121.472331,860.6339614540445
C0V350,溪埔,高雄市,大樹區,22.740278,120.438611,22.738578,120.446797,860.5100087236119
C0Z020,明里,花蓮縣,富里鄉,23.210556,121.254167,23.208717,121.262342,860.1123076397345
C0R540,佳冬,屏東縣,佳冬鄉,22.421194,120.544222,22.419456,120.552375,860.0394630996376
C0C490,八德,桃園市,八德區,24.930528,121.275,24.928708,121.283289,859.9683614661077
C0E940,雪見,苗栗縣,泰安鄉,24.4277,121.0052,24.42595,121.01347,859.5856080245542
C0C650,平鎮,桃園市,平鎮區,24.899444,121.206389,24.897503,121.214636,859.337020495457
C2A650,火燒寮,新北市,平溪區,25.004411,121.734572,25.002719,121.742892,859.288715589947
C0AI40,石牌,臺北市,北投區,25.117336,121.504825,25.115597,121.513139,859.1071084869128
C0R320,車城,屏東縣,車城鄉,22.075833,120.708056,22.0744,120.716247,858.9380940399757
C0FB10,出雲山苗圃,臺中市,和平區,24.2328,120.8965,24.23105,120.90475,858.8655771037403
C0Z070,舞鶴,花蓮縣,瑞穗鄉,23.469722,121.365833,23.468114,121.374069,858.8608829281361
C2G640,鹿港,彰化縣,鹿港鎮,24.076944,120.422222,24.0753,120.430481,858.1620043095315
C0E610,馬都安,苗栗縣,泰安鄉,24.453056,120.921944,24.451272,120.930192,858.1189042796751
C2O950,安南,臺南市,安南區,23.078333,120.136667,23.076694,120.144861,857.8021119991056
C0F9K0,大安,臺中市,大安區,24.347444,120.579972,24.345061,120.588025,857.7742764746943
C0A640,石碇,新北市,石碇區,24.995758,121.654639,24.993969,121.662917,857.6544079898731
C0C620,蘆竹,桃園市,蘆竹區,25.086111,121.2575,25.084275,121.265767,857.2090968025379
C0D480,打鐵坑,新竹縣,新埔鎮,24.85175,121.142611,24.849664,121.150789,857.1329965930375
C0V450,鳳森,高雄市,小港區,22.546944,120.3845,22.545064,120.392592,856.91016329275
C0F9V0,新社,臺中市,新社區,24.201583,120.8075,24.200172,120.815806,856.9007635995187
C0C790,東眼山,桃園市,復興區,24.8301,121.4006,24.8284,121.40888,856.7030895126078
C0E780,銅鑼,苗栗縣,銅鑼鄉,24.491528,120.782639,24.489681,120.790853,856.1773976976903
C0FB00,大雪山,臺中市,和平區,24.2562,120.9991,24.254668,121.007374,855.9328478199068
C0V440,鳳山,高雄市,鳳山區,22.648611,120.348056,22.646653,120.356122,855.8933469429948
C0UB70,太平山中間站,宜蘭縣,大同鄉,24.5437,121.5052,24.542003,121.513453,855.8405019000709
C0O830,北寮,臺南市,南化區,23.081611,120.486944,23.079561,120.495008,855.816883231607
C0F9X0,大雅,臺中市,大雅區,24.217056,120.616239,24.215281,120.62445,855.7515620018282
C0T9H0,加路蘭山,花蓮縣,豐濱鄉,23.684706,121.519219,23.682947,121.5274,855.7213610649968
V2C260,八德蔬果,桃園市,八德區,24.980279,121.27356,24.978508,121.281819,855.4307979806497
C0FA80,小雪山天池,臺中市,和平區,24.2825,121.0182,24.28025,121.02627,855.368444489763
C0UB80,翠峰林道6K,宜蘭縣,大同鄉,24.4995,121.5604,24.49773,121.568625,855.1956071240218
C0G620,芬園,彰化縣,芬園鄉,24.017222,120.613056,24.015678,120.6213,854.7515781631013
C0E750,苗栗,苗栗縣,苗栗市,24.566667,120.816444,24.564569,120.824575,854.7415364821617
C2M620,瑞里,嘉義縣,梅山鄉,23.546903,120.667039,23.545133,120.675197,854.5730953374315
C0O960,崎頂,臺南市,龍崎區,22.961306,120.361194,22.959547,120.369317,854.366948236326
C0F9Q0,外埔,臺中市,外埔區,24.349556,120.697472,24.347817,120.705686,854.2873263907512
C0G890,伸港,彰化縣,伸港鄉,24.150528,120.476167,24.148933,120.484403,854.2633936721458
C0I520,玉山風口,南投縣,信義鄉,23.472294,120.947853,23.470489,120.955994,854.2504738395926
C0D750,樂山林道6k,新竹縣,五峰鄉,24.5017,121.0795,24.49999,121.08773,854.1636902858087
C0R350,貓鼻頭,屏東縣,恆春鎮,21.923578,120.727792,21.921689,120.735817,854.0459726561885
C0F9L0,后里,臺中市,后里區,24.312111,120.7215,24.310436,120.729725,854.0322818132304
C0F9S0,烏日,臺中市,烏日區,24.108833,120.615917,24.107058,120.624103,853.9695343656604
C0AD40,土城,新北市,土城區,24.974944,121.436917,24.973208,121.445169,853.8909886842206
C0U520,雙連埤,宜蘭縣,員山鄉,24.754722,121.633056,24.753033,121.641303,853.6786060978342
CAE560,國一S144K,苗栗縣,銅鑼鄉,24.438818,120.770016,24.437042,120.778219,853.5729226394303
C0E960,觀霧分站,苗栗縣,泰安鄉,24.5075,121.1057,24.505781,121.113921,853.462111357466
C0V710,苓雅,高雄市,苓雅區,22.624528,120.322583,22.622742,120.330669,853.3660926448199
C0U650,玉蘭,宜蘭縣,大同鄉,24.677222,121.578889,24.675286,121.587061,853.3061406794042
C0R470,高樹,屏東縣,高樹鄉,22.828222,120.592722,22.826389,120.600806,853.1993593474523
C0G780,秀水,彰化縣,秀水鄉,24.035917,120.495722,24.03405,120.503869,853.0083580185517
C0V690,鼓山,高雄市,鼓山區,22.625139,120.2675,22.623325,120.275575,852.9954759141087
C0R550,新埤,屏東縣,新埤鄉,22.469778,120.574833,22.467947,120.582894,852.9540886395483
C0AC60,三峽,新北市,三峽區,24.940806,121.3615,24.939025,121.369728,852.9067368082572
466950,彭佳嶼,基隆市,中正區,25.629774,122.071474,25.627975,122.079744,852.8991888545593
C0AJ90,澳底,新北市,貢寮區,25.056993,121.917036,25.055192,121.925264,852.6638014861551
CAD060,國一S098K,新竹縣,寶山鄉,24.762369,120.982894,24.76056,120.9911,852.6400543675168
C0UA90,石城,宜蘭縣,頭城鎮,24.982247,121.942992,24.980444,121.951214,852.6188915109373
72N240,七股研究中心,臺南市,七股區,23.083472,120.054792,23.081672,120.062894,852.6017740221467
C0UA80,大溪漁港,宜蘭縣,頭城鎮,24.943603,121.894736,24.941803,121.902956,852.5974466614654
C0B050,八斗子,基隆市,中正區,25.146547,121.783436,25.144756,121.791672,852.5964223218099
C0FB40,中橫21.6k,臺中市,和平區,24.2516,121.1373,24.2499,121.1455,852.5586067879882
C0AJ50,水湳洞,新北市,瑞芳區,25.125492,121.854006,25.123697,121.862239,852.5457800996377
C0D680,香山濕地,新竹市,香山區,24.785386,120.906781,24.783583,120.914989,852.529839706028
C0U760,東澳,宜蘭縣,南澳鄉,24.523767,121.824986,24.521958,121.833175,852.5084297192544
C0R341,牡丹,屏東縣,牡丹鄉,22.131817,120.784589,22.130036,120.792639,852.493232207895
C0Z310,清水斷崖,花蓮縣,秀林鄉,24.2201,121.680972,24.218294,121.689142,852.4926351630386
C0U880,北關,宜蘭縣,頭城鎮,24.90902,121.865211,24.907222,121.873428,852.4771620966349
C2A540,四堵,新北市,坪林區,24.894394,121.737519,24.8926,121.745736,852.4684240607623
C0U600,礁溪,宜蘭縣,礁溪鄉,24.819336,121.757397,24.817539,121.765608,852.4469791383639
C0UB10,蘇澳,宜蘭縣,蘇澳鎮,24.59875,121.848895,24.596944,121.857089,852.4396858249734
C0U970,大福,宜蘭縣,壯圍鄉,24.802436,121.805683,24.800636,121.813892,852.4388539265157
C2I090,鳳凰,南投縣,鹿谷鄉,23.729722,120.779167,23.728081,120.787347,852.4374686448991
C0UA50,西帽山,宜蘭縣,南澳鄉,24.557164,121.794436,24.555361,121.802628,852.4318848133641
C0B060,暖暖,基隆市,暖暖區,25.097533,121.732069,25.095742,121.7403,852.43025484341
C0T9I0,豐濱,花蓮縣,豐濱鄉,23.585708,121.506678,23.583897,121.514806,852.4249987822558
C0U910,冬山,宜蘭縣,冬山鄉,24.635528,121.7855,24.633725,121.793697,852.4190893041424
C0Z210,瑞穗,花蓮縣,瑞穗鄉,23.525708,121.382086,23.5239,121.390211,852.4165707191046
C0UB20,壯圍,宜蘭縣,壯圍鄉,24.737723,121.808046,24.735922,121.81625,852.39399508085
B2U990,畜試東區分所,宜蘭縣,五結鄉,24.670842,121.824362,24.669039,121.832561,852.3877621073287
C0B010,七堵,基隆市,七堵區,25.096608,121.708897,25.094819,121.717128,852.3844135829662
C0Z150,吉安光華,花蓮縣,吉安鄉,23.932733,121.587003,23.930925,121.595153,852.3759911737276
CAUB30,國五S031K,宜蘭縣,礁溪鄉,24.820942,121.774168,24.819144,121.782378,852.3645023146503
C0R260,春日,屏東縣,春日鄉,22.372167,120.62025,22.370361,120.628306,852.3610939293311
466940,基隆,基隆市,仁愛區,25.135104,121.732242,25.133314,121.740475,852.3523554148694
C0AJ20,野柳,新北市,萬里區,25.208817,121.681783,25.207031,121.690022,852.3484586867174
CAB050,國三N002K,基隆市,中山區,25.147619,121.713466,25.14583,121.7217,852.3416631219235
C0T9A0,月眉山,花蓮縣,壽豐鄉,23.811736,121.531686,23.809928,121.539828,852.3377392960396
C0Z200,萬榮,花蓮縣,鳳林鎮,23.711022,121.411969,23.709219,121.420106,852.3352065517756
C0UB00,淡江大學蘭陽校園,宜蘭縣,礁溪鄉,24.825033,121.722172,24.823239,121.730383,852.3317860264259
467080,宜蘭,宜蘭縣,宜蘭市,24.765773,121.748322,24.763975,121.756528,852.3302143606337
C0U940,羅東,宜蘭縣,羅東鎮,24.683636,121.741144,24.681836,121.749344,852.3249487814942
C0B040,大武崙,基隆市,安樂區,25.168464,121.698758,25.166678,121.706994,852.3218931976124
C0A530,坪林,新北市,坪林區,24.939975,121.701531,24.938183,121.70975,852.3147276391604
C0B020,基隆嶼,基隆市,中正區,25.1932,121.775678,25.191408,121.783914,852.3140569034705
C0M680,太保,嘉義縣,太保市,23.456792,120.323303,23.455047,120.331439,852.305743881664
C0U770,南澳,宜蘭縣,南澳鄉,24.451153,121.802036,24.449347,121.810219,852.3043831145766
CAUB50,國五S047K,宜蘭縣,羅東鎮,24.677257,121.786384,24.675456,121.794583,852.2940587580168
CAB010,國一S001K,基隆市,安樂區,25.11762,121.720369,25.11583,121.7286,852.2718975399841
C0AJ40,石門,新北市,石門區,25.275453,121.592956,25.273672,121.6012,852.2661474579319
C0U900,內城,宜蘭縣,員山鄉,24.719928,121.679461,24.718133,121.687664,852.2545019304699
CAAD90,國五N013K,新北市,坪林區,24.949395,121.697289,24.947603,121.705508,852.2531164783902
CAUB40,國五S041K,宜蘭縣,壯圍鄉,24.736563,121.773719,24.734764,121.781922,852.2511084928522
C0Z330,安通山,花蓮縣,玉里鎮,23.292536,121.340419,23.290728,121.348528,852.2480261477191
C0U870,大礁溪,宜蘭縣,礁溪鄉,24.792836,121.666839,24.791042,121.675047,852.2466501865115
C0U860,頭城,宜蘭縣,頭城鎮,24.855031,121.822586,24.853233,121.830797,852.2408044293811
C2F930,大甲,臺中市,大甲區,24.349917,120.632361,24.347667,120.640403,852.2407639235547
CAB020,國一S006K,基隆市,七堵區,25.088729,121.678671,25.08694,121.6869,852.2404659679607
C0UA60,樟樹山,宜蘭縣,南澳鄉,24.415731,121.775067,24.413925,121.783247,852.2353056601677
CAB030,國三S004K,基隆市,七堵區,25.116228,121.680369,25.11444,121.6886,852.2291592787499
CAAD60,國五S005K,新北市,石碇區,24.998202,121.643708,24.996414,121.651931,852.2216049926722
C0UA40,西德山,宜蘭縣,南澳鄉,24.562447,121.744417,24.560647,121.752608,852.2212426470035
CAB040,國三S007K,基隆市,七堵區,25.098727,121.65957,25.09694,121.6678,852.2206507843263
C0UA70,桃源谷,宜蘭縣,頭城鎮,24.964408,121.880658,24.962606,121.888875,852.219645093639
CAAD70,國五S006K,新北市,石碇區,24.991753,121.64875,24.989964,121.656972,852.1918393421189
C0T9D0,和中,花蓮縣,秀林鄉,24.268567,121.732861,24.266761,121.741031,852.1859710097981
C0FB20,雪山橋,臺中市,和平區,24.2336,120.9704,24.23192,120.9786,852.1829661235862
C0T9G0,鳳林山,花蓮縣,鳳林鎮,23.737072,121.411994,23.735269,121.420131,852.1743489055273
CAA010,國一N013K,新北市,汐止區,25.068524,121.619925,25.066739,121.628153,852.1717964991321
C0R620,墾雷,屏東縣,恆春鎮,21.90265,120.847244,21.900836,120.855269,852.1512080457853
C0S710,鹿野,臺東縣,鹿野鄉,22.919517,121.114908,22.917711,121.122994,852.1450748769137
C0U980,坪林石牌,宜蘭縣,頭城鎮,24.866578,121.76575,24.864781,121.773961,852.1395236973143
C0U990,員山,宜蘭縣,員山鄉,24.746147,121.714269,24.74435,121.722472,852.1368567670003
CAA030,國三S010K,新北市,汐止區,25.081787,121.639272,25.08,121.6475,852.1363487411888
CAA090,國三甲005K,臺北市,文山區,25.003726,121.589277,25.00194,121.5975,852.1335139860541
C2UC10,出水溪,宜蘭縣,大同鄉,24.617617,121.644058,24.615822,121.652253,852.1291525649658
C0R160,鹽埔,屏東縣,鹽埔鄉,22.741342,120.522697,22.739558,120.530778,852.1281832255644
CAA040,國三S016K,臺北市,南港區,25.034846,121.607575,25.03306,121.6158,852.1252177989825
C0TA50,和仁,花蓮縣,秀林鄉,24.243199,121.704304,24.241394,121.712472,852.1232827867689
C0U950,鶯子嶺,宜蘭縣,頭城鎮,24.899333,121.784231,24.897536,121.792444,852.1221276303653
C0R280,檳榔,屏東縣,滿州鄉,22.077883,120.828758,22.076075,120.836794,852.1019506715264
C0TA40,秀林,花蓮縣,秀林鄉,24.304668,121.722972,24.302864,121.731144,852.1017638825122
C0U890,三星,宜蘭縣,三星鄉,24.669917,121.644819,24.668122,121.653017,852.0866842917804
C0TB40,崇德,花蓮縣,秀林鄉,24.167948,121.649251,24.166144,121.657414,852.0794305675244
C0AG80,中和,新北市,中和區,24.993403,121.483569,24.991622,121.491792,852.0718058048166
C0A770,科教館,臺北市,士林區,25.098133,121.508275,25.096356,121.516506,852.0639059319601
C0A9F0,內湖,臺北市,內湖區,25.081206,121.567222,25.079422,121.57545,852.062438299285
C0S980,勝林山,臺東縣,達仁鄉,22.432239,120.885742,22.430439,120.8938,852.0560447259838
C0AI20,白沙灣,新北市,石門區,25.284903,121.510814,25.283128,121.519058,852.0485384834499
C0TA80,立霧山,花蓮縣,秀林鄉,24.185061,121.633735,24.183258,121.641899,852.0439348202874
C0FA90,小雪山林道,臺中市,和平區,24.2968,121.0283,24.29515,121.03651,852.043902124231
C0AC70,信義,臺北市,信義區,25.039606,121.556372,25.037822,121.564597,852.0421380026883
C2UC20,長嶺,宜蘭縣,員山鄉,24.710732,121.603419,24.70894,121.61162,852.0395151619917
466910,鞍部,臺北市,北投區,25.184365,121.521495,25.182586,121.529731,852.0356815101695
C0X120,麻豆,臺南市,麻豆區,23.185056,120.2405,23.183289,120.248611,852.0322606275205
C0Z220,和平林道,花蓮縣,秀林鄉,24.345722,121.648142,24.343922,121.656317,852.0318891374516
C0AH80,深坑,新北市,深坑區,25.004489,121.620106,25.002703,121.628328,852.0305105740133
C0TA30,鹽寮,花蓮縣,壽豐鄉,23.847418,121.584524,23.845606,121.592664,852.0238041175761
C0TA10,花蓮漁港,花蓮縣,花蓮市,23.997128,121.63018,23.995322,121.638331,852.0202465615253
C0A931,三和,新北市,金山區,25.234933,121.586997,25.233153,121.595236,852.0201675657238
466930,陽明山,臺北市,北投區,25.163858,121.536313,25.162078,121.544547,852.0013372024952
C0Z300,東里,花蓮縣,富里鄉,23.270336,121.297364,23.268528,121.305469,851.9851445388714
C0Z190,富世,花蓮縣,秀林鄉,24.149236,121.621542,24.147433,121.629703,851.9739366959891
466920,臺北,臺北市,中正區,25.039439,121.506628,25.037658,121.514853,851.9656222867266
G2AI50,台農院關渡站,臺北市,北投區,25.117528,121.483769,25.11575,121.492,851.9618321427552
C0Z180,新城,花蓮縣,新城鄉,24.042289,121.596724,24.040486,121.604878,851.9551478754871
CAA020,國一S026K,新北市,三重區,25.078169,121.488172,25.07639,121.4964,851.9531486676772
A0A010,臺灣大學,臺北市,大安區,25.01606,121.531193,25.014278,121.539416,851.9490212218159
466881,新北,新北市,新店區,24.96099,121.516977,24.959207,121.525196,851.9437739349999
C0AJ70,田寮,新北市,三芝區,25.271575,121.480355,25.2698,121.488597,851.9414777384175
C0ACA0,新莊,新北市,新莊區,25.05325,121.438528,25.051478,121.446756,851.9367343521795
C2O810,曾文,臺南市,楠西區,23.221472,120.489222,23.219681,120.497328,851.9353106322387
466990,花蓮,花蓮縣,花蓮市,23.976933,121.605126,23.975128,121.613275,851.9227706773715
CAAH60,大安森林,臺北市,大安區,25.031331,121.528056,25.02955,121.53628,851.9208972840465
C0F0E0,南湖圈谷,臺中市,和平區,24.365503,121.436489,24.363714,121.444667,851.9149867696807
CAA050,國三S037K,新北市,土城區,24.984141,121.462821,24.982361,121.471042,851.910629198566
C0AH40,平等,臺北市,士林區,25.130925,121.568856,25.129142,121.577086,851.9047670685416
C0AH70,松山,臺北市,松山區,25.050492,121.542203,25.048711,121.550428,851.8929816751862
C0U960,翠峰湖,宜蘭縣,大同鄉,24.51265,121.599858,24.510856,121.608044,851.8925654309439
C0TA20,加灣,花蓮縣,秀林鄉,24.083828,121.600788,24.082025,121.608944,851.891990057684
C0V650,彌陀,高雄市,彌陀區,22.785583,120.238278,22.783806,120.246361,851.8856127192495
C0AJ80,板橋,新北市,板橋區,25.012431,121.440638,25.010653,121.448861,851.8694883675565
C0AI00,五股,新北市,五股區,25.076228,121.419053,25.074453,121.427281,851.8627502666906
466900,淡水,新北市,淡水區,25.166664,121.440672,25.164889,121.448906,851.8537871194768
C0AK30,硬漢嶺,新北市,八里區,25.137872,121.41814,25.136097,121.426372,851.8481606075084
C0AJ30,淡水觀海,新北市,淡水區,25.186364,121.400381,25.184592,121.408617,851.8420554010285
C0Z270,蕃薯寮,花蓮縣,壽豐鄉,23.740156,121.531975,23.73835,121.540108,851.838171655447
C2TB30,吉安,花蓮縣,吉安鄉,23.947182,121.539883,23.94538,121.54803,851.8324081754536
C0UA30,白嶺,宜蘭縣,大同鄉,24.529611,121.510844,24.527819,121.519031,851.8301388156204
C0AH90,福山植物園,新北市,烏來區,24.762506,121.573147,24.760717,121.58135,851.8226461638621
C0T9E0,大坑,花蓮縣,壽豐鄉,23.882433,121.573839,23.880628,121.581981,851.8201915156776
C0AJ60,六塊厝,新北市,淡水區,25.241776,121.439863,25.240002,121.448102,851.8200252366139
C0C680,龜山,桃園市,龜山區,25.030231,121.378336,25.028458,121.386561,851.8197658852544
CAA060,國三S042K,新北市,土城區,24.961778,121.422381,24.96,121.4306,851.8093859727583
C0UA20,多加屯,宜蘭縣,大同鄉,24.3704,121.365011,24.368614,121.373189,851.805962117714
C0Z250,瑞穗林道,花蓮縣,卓溪鄉,23.494642,121.298764,23.492842,121.306883,851.8023786275402
C0AH50,林口,新北市,林口區,25.073953,121.372611,25.072181,121.380839,851.8004906270372
C0X170,關廟,臺南市,關廟區,22.964861,120.319722,22.963017,120.327797,851.788472607376
CAC040,拉拉山,桃園市,復興區,24.7011,121.418933,24.699317,121.427133,851.7700666754625
C0AH10,永和,新北市,永和區,25.013028,121.499889,25.01125,121.508111,851.7675550081402
CAA070,國三N046K,新北市,樹林區,24.952607,121.387582,24.95083,121.3958,851.7455527155696
C0F0D0,審馬陣,臺中市,和平區,24.383461,121.412122,24.381675,121.4203,851.7227651305708
C0S900,蘭嶼高中,臺東縣,蘭嶼鄉,22.050931,121.504119,22.049094,121.512142,851.7211320758868
C2TB80,庄子底,花蓮縣,鳳林鎮,23.719744,121.486249,23.71794,121.49438,851.7138899004659
C0Z160,鳳林,花蓮縣,鳳林鎮,23.747917,121.445278,23.746114,121.453411,851.7116459730336
C0AK10,太平里,新北市,林口區,25.136709,121.356668,25.134937,121.364899,851.680665625365
C0C710,大溪永福,桃園市,大溪區,24.894711,121.316761,24.892936,121.324975,851.6800236904038
C2TB90,長橋,花蓮縣,鳳林鎮,23.689203,121.453731,23.6874,121.46186,851.6780719477524
72AI40,桃改樹林分場,新北市,樹林區,24.946279,121.378755,24.944503,121.386972,851.6630968024609
C0UA00,土場,宜蘭縣,大同鄉,24.578356,121.487153,24.576533,121.495333,851.6430451591957
C0A520,山佳,新北市,樹林區,24.976719,121.393789,24.974944,121.402008,851.6341524565422
C0I530,小奇萊,南投縣,仁愛鄉,24.13355,121.287556,24.131764,121.295717,851.6298445624248
C0I540,奇萊稜線,南投縣,仁愛鄉,24.111019,121.318297,24.109231,121.326456,851.6261627706562
C0C720,竹圍,桃園市,大園區,25.114458,121.231594,25.112694,121.239825,851.6221356961514
CAA080,國三S054K,新北市,鶯歌區,24.940943,121.315683,24.93917,121.3239,851.6207074546143
C0R100,尾寮山,屏東縣,三地門鄉,22.834889,120.675806,22.833111,120.683889,851.6197610114542
C0AH00,汐止,新北市,汐止區,25.068667,121.650556,25.066881,121.658778,851.6090878559775
CAC050,西濱S023K,桃園市,蘆竹區,25.118258,121.26728,25.11649,121.27551,851.6016718793576
C0I480,梅峰,南投縣,仁愛鄉,24.087056,121.165414,24.085272,121.173572,851.5743656965349
C0SB80,長濱漁港,臺東縣,長濱鄉,23.315454,121.451891,23.313644,121.459994,851.5665309955546
C0S730,綠島,臺東縣,綠島鄉,22.669025,121.467267,22.667203,121.475328,851.5537589318476
C0SD40,牛頭山,臺東縣,綠島鄉,22.678485,121.498883,22.676661,121.506944,851.5512967535269
C0Z280,德武,花蓮縣,玉里鎮,23.476069,121.402597,23.474264,121.410711,851.5509434837296
C0S910,蘭嶼燈塔,臺東縣,蘭嶼鄉,22.083031,121.495094,22.081194,121.503117,851.5388470813407
C2SD80,再來山,臺東縣,長濱鄉,23.345518,121.433115,23.34371,121.44122,851.5304686824227
CAC020,國二E009K,桃園市,桃園區,25.020014,121.265475,25.018244,121.273697,851.5156302556326
C2TA70,赤科坪,花蓮縣,玉里鎮,23.400655,121.383571,23.39885,121.39168,851.5141048186346
C0SB70,小港漁港,臺東縣,成功鎮,23.160368,121.392338,23.158558,121.400431,851.5080963378016
CAC030,國三N063K,桃園市,大溪區,24.891285,121.255387,24.889514,121.2636,851.5012781514787
467620,蘭嶼,臺東縣,蘭嶼鄉,22.038737,121.55041,22.0369,121.55843,851.490126211903
C0S940,石寧山,臺東縣,長濱鄉,23.225581,121.398542,23.223772,121.406639,851.4870385302492
C0SD30,東清國小,臺東縣,蘭嶼鄉,22.058965,121.556901,22.057128,121.564922,851.4754386479151
CAC060,西濱S032K,桃園市,大園區,25.09373,121.184277,25.091966,121.192505,851.4648538566308
A0F010,武陵,臺中市,和平區,24.354609,121.300112,24.352825,121.308286,851.460614994119
A0Z080,合歡山,花蓮縣,秀林鄉,24.144972,121.276071,24.143186,121.284231,851.4592358312224
C0Z100,東華,花蓮縣,壽豐鄉,23.897056,121.541694,23.89525,121.549833,851.4590777207981
C2TB50,麻汝,花蓮縣,玉里鎮,23.427345,121.38547,23.42554,121.39358,851.4510606930178
C0T960,光復,花蓮縣,光復鄉,23.662497,121.416839,23.660694,121.424964,851.446558374706
C0F9Y0,桃山,臺中市,和平區,24.434519,121.295628,24.432739,121.303808,851.4386659602436
C0SB60,白守蓮,臺東縣,成功鎮,23.12858,121.393824,23.126769,121.401914,851.4269801382839
C2C410,中央大學,桃園市,中壢區,24.969417,121.176946,24.967652,121.185165,851.4249542247371
C2TA90,加納納,花蓮縣,瑞穗鄉,23.468223,121.351754,23.466421,121.359867,851.4210653623842
C0UA10,鴛鴦湖,宜蘭縣,大同鄉,24.592053,121.404039,24.590269,121.412228,851.4180971864314
C0SA30,都歷,臺東縣,成功鎮,23.022142,121.315558,23.020333,121.323642,851.4141655785791
C0O990,媽廟,臺南市,歸仁區,22.993514,120.285431,22.99175,120.293525,851.4126145608395
C0C700,中壢,桃園市,中壢區,24.979428,121.248156,24.977661,121.256375,851.4106520876492
C2TB70,達谷寮,花蓮縣,玉里鎮,23.381804,121.351573,23.38,121.35968,851.4039746704973
C0Z290,赤柯山,花蓮縣,玉里鎮,23.370733,121.374825,23.368928,121.382931,851.3981470918651
CAC760,國一高架N063K,桃園市,平鎮區,24.952048,121.188097,24.950281,121.196314,851.393813504885
C0C740,觀音工業區,桃園市,觀音區,25.066525,121.106631,25.064767,121.114858,851.3925737952294
CAD710,國三N077K,新竹縣,關西鎮,24.799064,121.181827,24.797294,121.190033,851.3889767065701
467610,成功,臺東縣,成功鎮,23.099296,121.36534,23.097486,121.373428,851.3772872551141
C2C590,觀音,桃園市,觀音區,25.028835,121.145094,25.027072,121.153317,851.3761459767394
C2TA60,六十石,花蓮縣,富里鄉,23.226575,121.310513,23.22477,121.31861,851.3760773878979
C0Z170,卓溪,花蓮縣,卓溪鄉,23.346133,121.294748,23.344331,121.302853,851.3694575947915
C0A9C0,天母,臺北市,士林區,25.119253,121.528939,25.117494,121.537169,851.3646088942852
C0SB50,叭嗡嗡,臺東縣,成功鎮,23.048871,121.335138,23.047062,121.343223,851.3541490903813
C2D720,關西工作站,新竹縣,關西鎮,24.759045,121.176589,24.757275,121.184792,851.3541303460889
C0D700,關西,新竹縣,關西鎮,24.799421,121.165033,24.797653,121.173239,851.335267828675
C2SD50,順那,臺東縣,東河鄉,23.043467,121.285235,23.04166,121.29332,851.3338809044598
CAC770,國三N072K,桃園市,龍潭區,24.838161,121.191163,24.836391,121.199371,851.3310661815086
C0D360,梅花,新竹縣,尖石鄉,24.680119,121.200361,24.678347,121.208558,851.3269538170503
C2H9K0,屯原,南投縣,仁愛鄉,24.069754,121.201235,24.067969,121.209389,851.3140352723194
CAC010,國一S072K,桃園市,楊梅區,24.897595,121.125987,24.89583,121.1342,851.3060146601993
C2H9Q0,北東眼山,南投縣,仁愛鄉,24.122721,121.181145,24.120939,121.189303,851.2983094355662
C0D540,橫山,新竹縣,橫山鄉,24.712925,121.108733,24.711158,121.116933,851.2811303764428
CAD080,國三N085K,新竹縣,關西鎮,24.785096,121.112895,24.78333,121.1211,851.2787833960456
C0C660,楊梅,桃園市,楊梅區,24.914139,121.134833,24.912375,121.143047,851.2704592494306
C0C750,新興坑尾,桃園市,觀音區,25.007827,121.088851,25.006066,121.097072,851.2667980890485
C0S890,關山,臺東縣,關山鎮,23.0413,121.166931,23.0395,121.175017,851.2628797657521
C2H9M0,發祥,南投縣,仁愛鄉,24.155875,121.156357,24.154094,121.164517,851.2610147005125
C0X290,北門,臺南市,北門區,23.269517,120.117367,23.267772,120.125481,851.2592703640373
C0R560,新園,屏東縣,新園鄉,22.545194,120.4535,22.5434,120.461558,851.2427186397304
CAD020,國一N077K,新竹縣,湖口鄉,24.886763,121.080688,24.885,121.0889,851.2273230372084
C2TB60,南安,花蓮縣,卓溪鄉,23.299981,121.253469,23.29818,121.26157,851.2255843828882
467050,新屋,桃園市,新屋區,25.008484,121.039271,25.006725,121.047492,851.2113507831027
C2H9L0,馬烈霸,南投縣,仁愛鄉,24.152982,121.193613,24.1512,121.201772,851.20645057762
C0X230,鹽水,臺南市,鹽水區,23.274339,120.239506,23.272603,120.247622,851.2014426590564
C0Z320,清水林道,花蓮縣,卓溪鄉,23.273047,121.180172,23.27125,121.188272,851.1844663318975
C0C730,中大臨海站,桃園市,新屋區,24.967883,121.000364,24.966128,121.008583,851.1793507986899
C0V400,阿公店,高雄市,燕巢區,22.805944,120.347444,22.804194,120.355528,851.1734923418403
C2H9N0,仁愛東眼,南投縣,仁愛鄉,24.028656,121.112349,24.026875,121.1205,851.1718678720491
C0Z230,和平,花蓮縣,秀林鄉,24.308961,121.761903,24.307169,121.770069,851.1702078170739
C0SB30,新蘭,臺東縣,東河鄉,22.871021,121.215155,22.869214,121.223228,851.1646973137114
C0T9N0,富里,花蓮縣,富里鄉,23.173442,121.241286,23.171639,121.249378,851.1465793588624
C0K400,斗六,雲林縣,斗六市,23.722303,120.532972,23.720575,120.541117,851.1355388761347
CAD030,國一S082K,新竹縣,湖口鄉,24.878431,121.038489,24.87667,121.0467,851.1323283696414
C0SB40,興隆,臺東縣,東河鄉,22.915469,121.249394,22.913661,121.257469,851.126771102137
C0S950,七塊厝,臺東縣,東河鄉,22.957525,121.221089,22.955719,121.229167,851.1231692109775
CAD040,國一S088K,新竹縣,竹北市,24.8462,121.013191,24.84444,121.0214,851.1204988746824
C0Z061,玉里,花蓮縣,玉里鎮,23.323306,121.331556,23.3215,121.339656,851.116326493389
C2FA00,烏石坑,臺中市,和平區,24.275269,120.939447,24.273503,120.947617,851.1061926809622
C0I390,仁愛,南投縣,仁愛鄉,24.023903,121.124056,24.022122,121.132206,851.1028633459603
C0D590,新豐,新竹縣,新豐鄉,24.872436,120.969,24.870678,120.977211,851.094744360841
C0X280,將軍,臺南市,將軍區,23.216733,120.127656,23.214972,120.135761,851.0907577765704
C0T870,鯉魚潭,花蓮縣,壽豐鄉,23.937444,121.500806,23.935639,121.508944,851.0827550380449
C0R190,赤山,屏東縣,萬巒鄉,22.594139,120.60625,22.592333,120.614306,851.0714371348432
C0I490,萬大林道,南投縣,仁愛鄉,23.930008,121.083267,23.928228,121.091411,851.0708296546713
CAD050,國一N094K,新竹市,東區,24.799541,121.000695,24.79778,121.0089,851.0568264329204
C2H9P0,伊拿谷,南投縣,仁愛鄉,23.964991,121.080118,23.963211,121.088264,851.0502114260621
C0SD20,富山,臺東縣,卑南鄉,22.82419,121.182756,22.822383,121.190825,851.0431562614148
C0Z050,佳心,花蓮縣,卓溪鄉,23.347464,121.205061,23.345667,121.213164,851.0322232675499
C2SD70,二層坪,臺東縣,鹿野鄉,22.942853,121.160303,22.94105,121.16838,851.032159270001
C0D690,外湖,新竹縣,新豐鄉,24.919492,120.960497,24.917736,120.968711,851.0309124335754
467571,新竹,新竹縣,竹北市,24.830335,121.006343,24.828575,121.01455,851.027396511172
C2S9B0,利吉,臺東縣,卑南鄉,22.864264,121.146788,22.86246,121.15486,851.0264096338941
C2E430,南庄,苗栗縣,南庄鄉,24.603539,120.992023,24.601775,121.000214,851.0254576038288
C0SB20,富岡,臺東縣,臺東市,22.794274,121.184602,22.792467,121.192669,851.0203991592629
CAD100,西濱N066K,新竹縣,新豐鄉,24.897357,120.956688,24.8956,120.9649,851.0047371549332
C0E930,龍鳳,苗栗縣,竹南鎮,24.701789,120.850928,24.700036,120.859128,850.9952315074195
C2G870,芳苑,彰化縣,芳苑鄉,23.924,120.311861,23.922303,120.320025,850.9913311622734
C2D730,寶山農場,新竹縣,寶山鄉,24.734205,120.967953,24.732444,120.976153,850.989539683905
CAF950,國一N158K,臺中市,后里區,24.334121,120.708967,24.332372,120.717144,850.9885407656229
C0S930,延平,臺東縣,延平鄉,22.904381,121.075983,22.902581,121.084058,850.9828110171802
C0D650,湖口,新竹縣,湖口鄉,24.906556,121.035417,24.904794,121.043628,850.974347488683
C2SD60,明峰,臺東縣,卑南鄉,22.868903,121.110178,22.8671,121.11825,850.9727602334904
C0H890,埔里,南投縣,埔里鎮,23.973944,120.944278,23.972169,120.952425,850.9639677854021
C0E550,明德,苗栗縣,頭屋鄉,24.58525,120.877222,24.583486,120.885411,850.9464100465926
467660,臺東,臺東縣,臺東市,22.754017,121.146522,22.752211,121.154586,850.9322844335554
E2HA20,畢祿溪站,南投縣,仁愛鄉,24.22873,121.300362,24.226944,121.308522,850.930802786553
C0I410,名間,南投縣,名間鄉,23.838817,120.693306,23.837053,120.701447,850.9297045571549
C0SA60,知本(水試所),臺東縣,臺東市,22.704053,121.074603,22.702247,121.082664,850.9268130565009
B2Q810,畜試南區分所,屏東縣,恆春鎮,21.947348,120.794139,21.945583,120.802167,850.9259969833821
C0D670,海天一線,新竹市,北區,24.833742,120.906231,24.831989,120.914439,850.9247650445351
C0M820,達邦,嘉義縣,阿里山鄉,23.455769,120.741403,23.453994,120.749517,850.8945983377057
82S580,茶改東部分場,臺東縣,鹿野鄉,22.909476,121.12206,22.907694,121.130139,850.8824353182507
72V140,高改旗南分場,高雄市,旗山區,22.859612,120.508583,22.857861,120.516667,850.8808740033433
C2H9R0,卓社,南投縣,仁愛鄉,23.889672,120.991946,23.887894,121.000086,850.8748890412772
72HA00,中改埔里分場,南投縣,魚池鄉,23.904982,120.955222,23.903208,120.963364,850.8741107892265
C0F0C0,中坑,臺中市,和平區,24.250283,120.895153,24.248517,120.903319,850.8699980922743
82H320,茶改中部分場,南投縣,魚池鄉,23.877382,120.905442,23.875611,120.913583,850.8697353023955
72S200,東改班鳩分場,臺東縣,卑南鄉,22.831307,121.069619,22.829528,121.077694,850.8693667530583
C2E520,大湖,苗栗縣,大湖鄉,24.4167,120.862694,24.414939,120.870872,850.8667267132508
72S590,東改賓朗果園,臺東縣,卑南鄉,22.815668,121.063204,22.813889,121.071278,850.8621377568106
72Q010,高雄農改,屏東縣,長治鄉,22.711084,120.517814,22.709333,120.525889,850.8606736503068
CAD110,西濱S082K,新竹市,香山區,24.753481,120.896827,24.751724,120.905028,850.8606112062082
A0G720,彰師大,彰化縣,彰化市,24.08314,120.548508,24.081389,120.556667,850.8504144508057
82H840,茶改南部分場,南投縣,鹿谷鄉,23.76429,120.732364,23.762528,120.7405,850.8457090409512
CAJ010,國三N252K,雲林縣,林內鄉,23.775877,120.632472,23.77412,120.64061,850.8441487162579
C2E420,竹南,苗栗縣,竹南鎮,24.710737,120.880772,24.70898,120.88897,850.8426773490933
C2H9J0,中台,南投縣,埔里鎮,24.001373,120.930591,23.9996,120.938739,850.839720626195
72N100,臺南農改,臺南市,新化區,23.062242,120.334096,23.0605,120.342194,850.8395849864362
C0I380,集集,南投縣,集集鎮,23.829972,120.793328,23.828206,120.801467,850.838004688958
C2H9W0,大坪頂農水,南投縣,埔里鎮,24.044894,120.92463,24.043122,120.932781,850.8377756700074
CAH010,國三N223K,南投縣,草屯鎮,23.956874,120.654227,23.955116,120.662376,850.831950075369
C2S9A0,北份子寮,臺東縣,卑南鄉,22.787412,121.070064,22.78561,121.07813,850.8300977519125
CAF050,國三N208K,臺中市,霧峰區,24.067905,120.652763,24.066147,120.660919,850.8282236875457
G2P820,農試鳳山分所,高雄市,鳳山區,22.648354,120.34801,22.646611,120.356083,850.8267554582235
72U480,花改蘭陽分場,宜蘭縣,三星鄉,24.688121,121.708402,24.686306,121.716583,850.8243137442842
K2E710,苗改生物防治研究中心,苗栗縣,大湖鄉,24.42463,120.863657,24.422861,120.871833,850.8242837461331
CAE060,國三N119K,苗栗縣,竹南鎮,24.677199,120.839196,24.675432,120.847389,850.8240576117444
B2N890,畜試所,臺南市,新化區,23.060713,120.328308,23.058972,120.336406,850.8234399541055
C2F990,摩天嶺,臺中市,和平區,24.324225,120.928649,24.322458,120.936819,850.8210729539676
CAD010,國一S105K,新竹縣,寶山鄉,24.728088,120.932448,24.726316,120.940643,850.8201968339331
CAF010,國一N174K,臺中市,西屯區,24.206657,120.647035,24.2049,120.6552,850.8169909062912
72M360,南改義竹分場,嘉義縣,義竹鄉,23.362432,120.271244,23.360694,120.279361,850.8164454300314
CAG050,國三N196K,彰化縣,彰化市,24.108907,120.546322,24.107155,120.554482,850.8125259123717
82A750,茶改北部分場,新北市,石碇區,24.957588,121.623022,24.955778,121.631222,850.8085942626332
C0FA30,梧棲,臺中市,梧棲區,24.257753,120.515211,24.256003,120.523381,850.8085300725834
G2L020,農試嘉義分所,嘉義市,東區,23.486776,120.465684,23.485028,120.473806,850.8080930103483
CAE020,國一S114K,苗栗縣,頭份市,24.670593,120.877616,24.668836,120.885811,850.8072951512761
C2E980,和興,苗栗縣,獅潭鄉,24.507081,120.914833,24.505319,120.923016,850.8066141957494
U2HA50,臺大竹山,南投縣,竹山鎮,23.758731,120.67342,23.756972,120.681556,850.8033653006235
CAF090,國四E5K,臺中市,神岡區,24.298221,120.634964,24.296465,120.643135,850.803255308244
A0K420,麥寮,雲林縣,麥寮鄉,23.800517,120.209572,23.798783,120.217717,850.8012328011442
CAF060,國三S168K,臺中市,清水區,24.310274,120.606299,24.308519,120.614471,850.7998076820243
CAE090,國三S156K,苗栗縣,苑裡鎮,24.399738,120.66131,24.39798,120.669487,850.7997203124751
U2H480,臺大溪頭,南投縣,鹿谷鄉,23.672071,120.790065,23.670306,120.798194,850.7988306267989
72M700,南改鹿草分場,嘉義縣,鹿草鄉,23.418608,120.274941,23.416869,120.283061,850.797701896699
CAG030,國一S207K,彰化縣,大村鄉,23.990053,120.499939,23.988304,120.508092,850.7906043477977
K2F750,種苗繁殖,臺中市,新社區,24.227737,120.792753,24.225972,120.800917,850.7897344089678
CAF020,國一S162K,臺中市,后里區,24.297293,120.687806,24.295534,120.695976,850.787144899723
CAJ020,國一N234K,雲林縣,西螺鎮,23.748078,120.459788,23.74633,120.467926,850.78710938788
B2E890,畜試北區分所,苗栗縣,西湖鄉,24.529569,120.762788,24.527806,120.770972,850.7864579767321
CAE040,國一S132K,苗栗縣,公館鄉,24.526272,120.812648,24.524506,120.820831,850.7861134267217
72D080,桃改五峰分場,新竹縣,五峰鄉,24.613978,121.148983,24.612194,121.157167,850.7854920121902
82C160,茶改場,桃園市,楊梅區,24.910258,121.17713,24.908472,121.185333,850.7841123479435
72K220,南改斗南分場,雲林縣,斗南鎮,23.636304,120.469202,23.634556,120.477333,850.7834543812099
CAL010,國一N250K,嘉義縣,大林鎮,23.612038,120.428737,23.610292,120.436867,850.782865356085
CAH020,國三S217K,南投縣,草屯鎮,24.008587,120.645062,24.00683,120.653214,850.7794655140992
K2E360,苗栗農改,苗栗縣,公館鄉,24.497488,120.82093,24.495722,120.829111,850.7737280923102
CAE030,國一S123K,苗栗縣,頭屋鄉,24.597708,120.852523,24.59594,120.86071,850.7721574848987
CAE080,國三S140K,苗栗縣,通霄鎮,24.524106,120.716822,24.522345,120.725006,850.7702872278886
A0A460,文化大學,臺北市,士林區,25.137855,121.531657,25.13605,121.53987,850.7686997466184
C0SB10,美和,臺東縣,太麻里鄉,22.683881,121.052177,22.682078,121.060236,850.7670477724124
C2FB50,出雲,臺中市,和平區,24.208236,120.894632,24.206469,120.902794,850.7670309765045
CAF040,國一S188K,臺中市,大肚區,24.120299,120.577587,24.118546,120.585747,850.7662521271767
72C440,桃園農改,桃園市,新屋區,24.952721,121.022375,24.950944,121.030583,850.764179514644
72T250,花蓮農改,花蓮縣,吉安鄉,23.977028,121.555752,23.975222,121.563889,850.763581967284
CAF030,國一S169K,臺中市,神岡區,24.238875,120.680105,24.237116,120.688271,850.7629243900958
CAG060,國三S202K,彰化縣,彰化市,24.094222,120.595098,24.092468,120.603256,850.7583048859885
CAG040,國三N191K,彰化縣,和美鎮,24.141006,120.513338,24.139256,120.5215,850.7569341432934
E2H360,蓮華池,南投縣,魚池鄉,23.920106,120.877136,23.918333,120.885278,850.7541075933781
C2E990,新坪頂,苗栗縣,卓蘭鎮,24.303773,120.849231,24.30201,120.8574,850.7497632611406
CAE050,國一S152K,苗栗縣,三義鄉,24.377254,120.74101,24.375492,120.749184,850.7497228301413
72G600,臺中農改,彰化縣,大村鄉,24.004779,120.526236,24.003028,120.534389,850.7492296533269
A2C560,農工中心,桃園市,中壢區,24.987706,121.231626,24.985917,121.239833,850.748387583942
C0M720,番路,嘉義縣,番路鄉,23.466408,120.546028,23.464644,120.554144,850.7452818377809
C0S700,知本,臺東縣,卑南鄉,22.686667,120.997583,22.684872,121.005644,850.7409587051275
CAG010,國一N198K,彰化縣,彰化市,24.065639,120.514899,24.063889,120.523056,850.7373367098628
C2H9G0,百勝,南投縣,國姓鄉,24.052912,120.90121,24.051142,120.909361,850.73601228233
CAE070,國三N151K,苗栗縣,苑裡鎮,24.441976,120.673477,24.440218,120.681656,850.727067804651
467550,玉山,南投縣,信義鄉,23.488964,120.951318,23.48718,120.95943,850.7265115473491
C0D760,大坪苗圃,新竹縣,五峰鄉,24.5379,121.1026,24.5362,121.1108,850.723825460615
C0S960,香蘭,臺東縣,太麻里鄉,22.589372,120.985322,22.587569,120.993375,850.7212792368412
467650,日月潭,南投縣,魚池鄉,23.883099,120.899911,23.881325,120.90805,850.7136352128182
E2K600,四湖植物園,雲林縣,四湖鄉,23.678718,120.155296,23.676986,120.163433,850.7122691109108
C0K470,林內,雲林縣,林內鄉,23.750436,120.601508,23.748675,120.609642,850.7077738377506
C0T9B0,水源,花蓮縣,秀林鄉,23.993718,121.529043,23.991914,121.537181,850.705717902451
U2HA30,臺大和社,南投縣,信義鄉,23.592633,120.880744,23.590856,120.888864,850.704240523331
C2H9D0,三隻寮,南投縣,國姓鄉,24.094845,120.853424,24.093078,120.861578,850.6919228589295
467280,後龍,苗栗縣,造橋鄉,24.650318,120.823641,24.648563,120.831834,850.6904640792253
CAV270,國一S336K,高雄市,路竹區,22.89593,120.263097,22.894167,120.271178,850.6726448851408
C0M700,竹崎,嘉義縣,竹崎鄉,23.527931,120.547378,23.526167,120.555497,850.6669587425406
C0M800,茶山,嘉義縣,阿里山鄉,23.300847,120.656664,23.299075,120.664767,850.6660878541136
C0E910,海埔,苗栗縣,後龍鎮,24.650519,120.764242,24.648769,120.772436,850.6601650390949
C0E920,通霄漁港,苗栗縣,通霄鎮,24.500339,120.665694,24.498589,120.673878,850.6420205472939
A0W080,吉貝,澎湖縣,白沙鄉,23.741712,119.596041,23.740011,119.604189,850.6400504939132
C2H9X0,福盛,南投縣,中寮鄉,23.8953,120.83263,23.89353,120.84077,850.6335796951744
C2FB60,頭櫃山,臺中市,新社區,24.131608,120.850769,24.129842,120.858925,850.6324732915302
C0E791,卓蘭,苗栗縣,卓蘭鎮,24.314319,120.816192,24.312558,120.824361,850.6315636025365
C2H9S0,龍南,南投縣,國姓鄉,23.955305,120.825039,23.953536,120.833183,850.6293148734106
C2E970,八甲,苗栗縣,苗栗市,24.537566,120.787798,24.535811,120.795983,850.629026077117
E2S980,太麻里(1),臺東縣,太麻里鄉,22.600724,120.971991,22.598922,120.980044,850.6288331440398
C2H9E0,國姓南港,南投縣,國姓鄉,23.912878,120.838415,23.911108,120.846556,850.6230086002563
C0S970,加津林,臺東縣,大武鄉,22.418014,120.9189,22.416211,120.926942,850.6185228991177
C0S920,金峰嘉蘭,臺東縣,金峰鄉,22.596589,120.952772,22.594789,120.960825,850.6006040247486
C0S690,太麻里,臺東縣,太麻里鄉,22.610825,120.977275,22.609022,120.985328,850.596066353258
CAW010,東引,連江縣,東引鄉,26.360539,120.475308,26.358836,120.483631,850.5951777642144
C2H9F0,柑林,南投縣,國姓鄉,24.020426,120.838924,24.018658,120.847072,850.5917789297835
C0F0B0,石岡,臺中市,石岡區,24.277822,120.769478,24.276061,120.777644,850.5673147679527
CAF980,國三N183K,臺中市,龍井區,24.19538,120.562148,24.193628,120.570311,850.56332240564
C2E880,三義,苗栗縣,三義鄉,24.407236,120.741644,24.405478,120.749819,850.5547794920992
U2HA40,臺大內茅埔,南投縣,信義鄉,23.691497,120.842992,23.689722,120.851117,850.5401311785301
C0E570,白沙屯,苗栗縣,通霄鎮,24.551198,120.688617,24.549447,120.696803,850.5379817425173
C0AI30,三重,新北市,三重區,25.059108,121.4924,25.057378,121.500625,850.5356503816918
CAE100,西濱N107K,苗栗縣,後龍鎮,24.597551,120.731211,24.5958,120.7394,850.5351366001014
C0R270,琉球嶼,屏東縣,琉球鄉,22.334025,120.354194,22.332244,120.362236,850.5304839889191
C0SA80,土坂,臺東縣,達仁鄉,22.454908,120.879528,22.453108,120.887572,850.5261257623454
C0I460,南投,南投縣,南投市,23.913208,120.679183,23.911469,120.687331,850.5228083143446
C0M520,東後寮,嘉義縣,義竹鄉,23.371644,120.239936,23.369892,120.248047,850.5192497383329
C0I360,水里,南投縣,水里鄉,23.814322,120.841658,23.812553,120.849792,850.5173425073683
C0A860,大坪,新北市,萬里區,25.167694,121.62475,25.165914,121.632969,850.5077646611405
C0K560,棋山,雲林縣,古坑鄉,23.688211,120.595289,23.68645,120.603417,850.4977209003976
C0AH30,五分山,新北市,瑞芳區,25.073047,121.772586,25.07125,121.780794,850.4957597887491
467530,阿里山,嘉義縣,阿里山鄉,23.509984,120.805129,23.508208,120.813242,850.4903385061705
C0R830,高士,屏東縣,牡丹鄉,22.123631,120.828758,22.121825,120.836781,850.4873385582854
C0R720,旭海,屏東縣,牡丹鄉,22.207208,120.879586,22.205403,120.887614,850.4842050587249
C2H9U0,鳳鵬,南投縣,鹿谷鄉,23.76569,120.779931,23.763919,120.788061,850.4740568381025
467540,大武,臺東縣,大武鄉,22.357523,120.895703,22.35572,120.90374,850.4682629547461
C0H9A0,神木村,南投縣,信義鄉,23.534519,120.835553,23.532742,120.843667,850.4653723834364
C0SA20,金崙山,臺東縣,太麻里鄉,22.569219,120.951617,22.567419,120.959667,850.4608622018949
C0SA00,歷坵,臺東縣,太麻里鄉,22.522769,120.883803,22.520969,120.89185,850.4317914666811
C0R780,滿州,屏東縣,滿州鄉,22.026208,120.831875,22.024403,120.839892,850.4140382996765
C0R860,鼻頭,屏東縣,滿州鄉,22.106107,120.889862,22.1043,120.897883,850.4132023240784
C0D660,新竹市東區,新竹市,東區,24.800436,120.978742,24.798681,120.986942,850.4064887944892
CAE110,西濱S129K,苗栗縣,苑裡鎮,24.44895,120.634622,24.4472,120.6428,850.3799462754879
C0R760,南仁湖,屏東縣,滿州鄉,22.086486,120.855333,22.084681,120.863353,850.3721963448529
C2K240,草嶺,雲林縣,古坑鄉,23.597319,120.685342,23.59555,120.693461,850.3701480385578
C0R680,佳樂水,屏東縣,滿州鄉,21.995386,120.853619,21.993578,120.861633,850.3669245281266
C0FA50,霧峰,臺中市,霧峰區,24.043658,120.691323,24.041897,120.699472,850.3654301855684
C0R750,四林格山,屏東縣,牡丹鄉,22.078792,120.794419,22.076989,120.802439,850.3634788932887
C0V810,左營,高雄市,左營區,22.676689,120.27685,22.674911,120.284911,850.3579431990842
C2K610,草嶺石壁,雲林縣,古坑鄉,23.604239,120.699612,23.602469,120.707731,850.3534119723862
C0R840,牡丹池山,屏東縣,牡丹鄉,22.170192,120.8332,22.168389,120.841225,850.3431814037217
C2R9A0,高士國小,屏東縣,牡丹鄉,22.127335,120.838508,22.12553,120.84653,850.3398839330788
C2H9H0,苗改南投蜂場,南投縣,名間鄉,23.854353,120.685345,23.852589,120.693481,850.3383641940469
C0E870,高鐵苗栗,苗栗縣,後龍鎮,24.609,120.817906,24.60725,120.826094,850.3375310192168
E2S960,太麻里(2),臺東縣,太麻里鄉,22.599802,120.9897,22.598,120.99775,850.334912647921
C0S760,紅石,臺東縣,海端鄉,23.070902,121.11777,23.069131,121.125856,850.3334053665822
C2M970,碧湖,嘉義縣,梅山鄉,23.570397,120.616047,23.568632,120.624165,850.3333254554044
467490,臺中,臺中市,北區,24.147494,120.675919,24.145736,120.684075,850.3274555499648
C0M750,布袋,嘉義縣,布袋鎮,23.382611,120.159667,23.380864,120.167778,850.325375300853
C0FA10,松柏,臺中市,大甲區,24.430864,120.609306,24.429117,120.617483,850.3207205304926
C0G720,溪州,彰化縣,溪州鄉,23.853347,120.490944,23.851597,120.499083,850.2838254694177
C0S990,山豬窟,臺東縣,大武鄉,22.320422,120.849339,22.318619,120.857372,850.2821456933546
C0FB70,大甲溪埔,臺中市,大甲區,24.372375,120.611895,24.370625,120.620067,850.2772773903692
C2M950,太和,嘉義縣,梅山鄉,23.540143,120.694847,23.538372,120.702961,850.2761906461832
C2M810,里佳,嘉義縣,阿里山鄉,23.390899,120.708543,23.389125,120.716647,850.2710467928467
C0R870,興海,屏東縣,滿州鄉,21.976985,120.835907,21.975177,120.843919,850.270643004464
C0I420,國姓,南投縣,國姓鄉,24.039567,120.846925,24.037803,120.855072,850.2703378674138
C2M940,日野賀,嘉義縣,阿里山鄉,23.435829,120.719062,23.434056,120.727169,850.2698510241512
C2M930,石卓,嘉義縣,竹崎鄉,23.480516,120.694154,23.478744,120.702264,850.2694557064759
C0K440,二崙,雲林縣,二崙鄉,23.77455,120.400811,23.772797,120.408944,850.2550866570415
C2M530,奮起湖,嘉義縣,竹崎鄉,23.495674,120.691142,23.493903,120.699253,850.2503980110102
C2M960,外寮,嘉義縣,梅山鄉,23.564411,120.657572,23.562643,120.665688,850.2487491651997
C0K450,大埤,雲林縣,大埤鄉,23.647817,120.4234,23.646064,120.431525,850.2448591561999
C0R710,龍磐,屏東縣,恆春鎮,21.933481,120.830933,21.931672,120.838942,850.2420083885937
C2H9Y0,松茗,南投縣,名間鄉,23.818463,120.642632,23.8167,120.650765,850.23860251328
C0X190,安平,臺南市,安平區,22.994972,120.144111,22.993161,120.152181,850.2362875215757
G2F820,農業試驗所,臺中市,霧峰區,24.033022,120.679986,24.031261,120.688133,850.2344518788458
C0R130,阿禮,屏東縣,霧臺鄉,22.744444,120.735556,22.742908,120.743678,850.2328725281595
C0X300,鹿寮,臺南市,白河區,23.387811,120.469225,23.386047,120.477331,850.231107324855
C2M9A0,大華,嘉義縣,竹崎鄉,23.484171,120.6668,23.4824,120.67491,850.2213933442416
C2H9T0,名間竹圍,南投縣,名間鄉,23.861675,120.629436,23.859914,120.637572,850.2159655483505
C0SA90,達仁林場,臺東縣,達仁鄉,22.266147,120.815942,22.264347,120.823972,850.2154545737271
C0M860,新美,嘉義縣,阿里山鄉,23.339792,120.675231,23.338017,120.683331,850.2096803462455
E2P990,扇平林試,高雄市,茂林區,22.969481,120.677627,22.9677,120.685703,850.2012470092573
CAF960,國三S175K,臺中市,沙鹿區,24.253246,120.58152,24.251494,120.589683,850.1971996928504
C0A890,雙溪,新北市,雙溪區,25.037861,121.856056,25.036003,121.864242,850.1951726750807
C0FA20,溫寮,臺中市,大安區,24.373925,120.574953,24.372178,120.583125,850.1911110657537
12Q980,恆春工作站,屏東縣,車城鄉,22.081478,120.706406,22.079678,120.714425,850.1694685416738
CAF100,西濱N151K,臺中市,清水區,24.277713,120.539516,24.275964,120.547681,850.1630988217129
C0G920,永靖,彰化縣,永靖鄉,23.926458,120.539392,23.924703,120.547533,850.1539230109304
467270,田中,彰化縣,田中鎮,23.875561,120.573149,23.873803,120.581286,850.1518061997983
C2M990,大巃頂,嘉義縣,梅山鄉,23.556466,120.606275,23.5547,120.61439,850.1468433776736
C0E590,通霄,苗栗縣,通霄鎮,24.473639,120.696444,24.471892,120.704622,850.1457080102176
C0M790,新港,嘉義縣,新港鄉,23.555011,120.3376,23.553261,120.345719,850.1434161992901
C2R990,泰武,屏東縣,泰武鄉,22.608649,120.689598,22.60686,120.69765,850.1433622545494
C0R690,墾丁,屏東縣,恆春鎮,21.968561,120.802258,21.966756,120.810269,850.1392387405807
C2G9A0,畜試所彰化,彰化縣,北斗鎮,23.862208,120.549828,23.86045,120.557964,850.1358767061852
C0E950,松安,苗栗縣,泰安鄉,24.3996,120.9778,24.39792,120.98599,850.1337724871321
C0R880,後壁湖,屏東縣,恆春鎮,21.94747,120.737695,21.945666,120.745705,850.131911632664
C0V660,岡山,高雄市,岡山區,22.798844,120.286889,22.797078,120.294958,850.1279274985379
C0R741,獅子,屏東縣,獅子鄉,22.204106,120.69721,22.202308,120.705236,850.1184607888731
C0M850,表湖,嘉義縣,大埔鄉,23.243628,120.633564,23.241856,120.641658,850.1174032533612
C0G730,二林,彰化縣,二林鎮,23.905067,120.367928,23.903319,120.376069,850.1089446115298
CAP060,國三S385K,高雄市,大樹區,22.769551,120.436379,22.767777,120.444444,850.1077307483923
E2P980,六龜林試,高雄市,六龜區,22.993482,120.637645,22.991703,120.645722,850.10618445155
C0R770,保力,屏東縣,車城鄉,22.072925,120.756094,22.071122,120.764111,850.0964100321918
C0R900,竹坑,屏東縣,車城鄉,22.140248,120.694128,22.13845,120.70215,850.0828651569177
C0G9B0,和美,彰化縣,和美鎮,24.106919,120.483978,24.105169,120.492131,850.0825087923025
467590,恆春,屏東縣,恆春鎮,22.0057,120.738326,22.003897,120.746339,850.0770576443252
C2M9C0,紫雲,嘉義縣,竹崎鄉,23.496678,120.532142,23.494914,120.540253,850.0643064737437
C0R670,楓港,屏東縣,枋山鄉,22.191928,120.684131,22.190131,120.692156,850.0618951067426
C0R800,丹路,屏東縣,獅子鄉,22.206281,120.742964,22.204481,120.750989,850.0582978048475
467290,古坑,雲林縣,古坑鄉,23.635401,120.543769,23.633639,120.551889,850.0556362595923
C0V800,六龜,高雄市,六龜區,22.99975,120.625528,22.997889,120.633583,850.0527663259693
C0R890,山海,屏東縣,恆春鎮,21.989579,120.701107,21.987777,120.709119,850.0418898279968
C0K390,土庫,雲林縣,土庫鎮,23.680772,120.387436,23.679019,120.395561,850.041849044247
C0G910,花壇,彰化縣,花壇鄉,24.032075,120.541314,24.030322,120.549461,850.0359316939538
C2K630,荷苞,雲林縣,古坑鄉,23.65948,120.587023,23.657717,120.595144,850.0322856960594
C0G950,防潮門,彰化縣,伸港鄉,24.185242,120.478972,24.183494,120.48713,850.0318665801884
C0M770,梅山,嘉義縣,梅山鄉,23.587147,120.547464,23.585386,120.555581,850.0288842550117
C0X050,東河,臺南市,東山區,23.298339,120.377492,23.296581,120.385592,850.0238182960842
C0C670,龍潭,桃園市,龍潭區,24.871833,121.213194,24.870056,121.221389,850.016483826746
C0R820,白鷺,屏東縣,來義鄉,22.456067,120.658178,22.454275,120.666219,850.0107829473122
C0FA40,臺中電廠,臺中市,龍井區,24.216388,120.482584,24.214641,120.490744,850.0071091380634
C0R960,內埔,屏東縣,內埔鄉,22.610267,120.562662,22.608483,120.570714,850.0039736810695
C2R970,屏科大,屏東縣,內埔鄉,22.65006,120.611193,22.648275,120.619247,849.9968533095632
CAG070,西濱S173K,彰化縣,鹿港鎮,24.109847,120.426423,24.1081,120.434576,849.9877787953079
C2M9B0,西興,嘉義縣,大埔鄉,23.244571,120.568077,23.2428,120.57617,849.9865578671606
C0R700,枋山,屏東縣,枋山鄉,22.248639,120.653058,22.246844,120.661086,849.9851009264668
C0R730,大坪頂,屏東縣,恆春鎮,22.026433,120.685536,22.024633,120.69355,849.9811578248575
C0M640,中埔,嘉義縣,中埔鄉,23.427144,120.514797,23.425381,120.522903,849.9662771218447
CAL050,國三N279K,嘉義縣,大林鎮,23.597872,120.515216,23.596111,120.523333,849.9630870443252
C2RA10,大新,屏東縣,內埔鄉,22.677362,120.569824,22.67558,120.57788,849.9586579052224
C0C460,復興,桃園市,復興區,24.822,121.344094,24.820208,121.352281,849.9446470465524
C0R950,萬隆國小,屏東縣,新埤鄉,22.509453,120.579772,22.507667,120.587817,849.9443834056393
C0R940,加祿堂,屏東縣,枋山鄉,22.338096,120.613688,22.336306,120.621722,849.9406556250239
C0M730,嘉義市東區,嘉義市,東區,23.459414,120.452408,23.457656,120.460517,849.9394689806473
C2V920,匏子寮,高雄市,甲仙區,23.050824,120.54511,23.04905,120.55319,849.9336240740025
C0R660,枋寮,屏東縣,枋寮鄉,22.369511,120.582611,22.367722,120.590647,849.9334565457715
C2G9C0,埔南,彰化縣,埔鹽鄉,23.992991,120.461546,23.99124,120.46969,849.9330708885955
C0G940,竹塘,彰化縣,竹塘鄉,23.85,120.378628,23.848253,120.386764,849.9313196088686
CAM900,國三S290K,嘉義縣,竹崎鄉,23.505867,120.482631,23.504106,120.490742,849.9312596947639
C2V260,月眉,高雄市,杉林區,22.972778,120.531778,22.971003,120.539853,849.9268788677865
C0V370,古亭坑,高雄市,田寮區,22.895,120.393889,22.893178,120.401947,849.9258132372431
C2G980,田頭村,彰化縣,竹塘鄉,23.828053,120.436042,23.8263,120.444175,849.9233736217142
CAL070,國三N295K,嘉義市,東區,23.470361,120.491261,23.468598,120.499369,849.90153451017
G2M350,農試溪口農場,嘉義縣,溪口鄉,23.587406,120.399994,23.58565,120.408111,849.899376887914
C2M9E0,旺來山,嘉義縣,民雄鄉,23.556913,120.478349,23.555153,120.486463,849.891039415514
C0R850,林邊,屏東縣,林邊鄉,22.465232,120.52585,22.463447,120.533892,849.8754205912132
C0K330,虎尾,雲林縣,虎尾鎮,23.720939,120.433911,23.719183,120.442036,849.8706433423686
C0G960,福寶,彰化縣,福興鄉,24.046048,120.373213,24.044302,120.381361,849.8690046352192
C0X320,柳營,臺南市,柳營區,23.255089,120.367158,23.253328,120.375253,849.8649697300141
C0R650,竹田,屏東縣,竹田鄉,22.586642,120.535392,22.584861,120.543442,849.8644486439166
C2M910,嘉義大學,嘉義市,東區,23.473087,120.477795,23.471325,120.485903,849.8592663878666
C0I370,魚池,南投縣,魚池鄉,23.897478,120.933219,23.895703,120.94135,849.8588709391158
C2V310,美濃,高雄市,美濃區,22.900567,120.511,22.898792,120.51907,849.8576664724972
CAQ010,國三N425K,屏東縣,南州鄉,22.482061,120.523623,22.480277,120.531666,849.8517374905977
C0R920,塭仔,屏東縣,佳冬鄉,22.418718,120.511622,22.416933,120.519661,849.845031348618
C0R930,萬丹,屏東縣,萬丹鄉,22.590256,120.477031,22.588475,120.485081,849.8433593873638
C2G9E0,移民庄,彰化縣,二林鎮,23.980148,120.394687,23.9784,120.40283,849.8381295258206
C2N180,鹿陶洋,臺南市,楠西區,23.145019,120.475434,23.14325,120.48352,849.8378570195481
C0R910,下寮,屏東縣,枋寮鄉,22.394648,120.546743,22.392861,120.55478,849.8362542064302
CAHA00,消防署訓練中心,南投縣,竹山鎮,23.82313,120.7148,23.82137,120.72293,849.8358252344665
C0O840,王爺宮,臺南市,六甲區,23.223828,120.392758,23.222064,120.40085,849.8321628635689
467480,嘉義,嘉義市,西區,23.497684,120.424796,23.495925,120.432906,849.8307934754823
CAG080,西濱S189K,彰化縣,芳苑鄉,23.989603,120.361463,23.987857,120.369607,849.8270611289346
A2K630,雲林臺大,雲林縣,虎尾鎮,23.732381,120.415777,23.730628,120.423903,849.8224745093192
C0V740,旗山,高雄市,旗山區,22.890389,120.475528,22.888614,120.483597,849.8183466612769
C0K580,高鐵雲林,雲林縣,虎尾鎮,23.739206,120.409817,23.737456,120.417944,849.8029236487571
C0X220,學甲,臺南市,學甲區,23.2321,120.174072,23.230347,120.182167,849.7991491559774
C0X210,白河,臺南市,白河區,23.349228,120.406328,23.347467,120.414428,849.7924074538665
CAQ020,國三S415K,屏東縣,竹田鄉,22.569782,120.519952,22.568,120.528,849.7890104352502
C2K310,港尾布雞,雲林縣,崙背鄉,23.750092,120.376263,23.74834,120.38439,849.7865890755262
C2R980,竹田國中,屏東縣,竹田鄉,22.617101,120.516069,22.61532,120.52412,849.786425692544
C0R570,麟洛,屏東縣,麟洛鄉,22.652556,120.519139,22.650775,120.527192,849.7786875758694
CAL020,國一S262K,嘉義縣,民雄鄉,23.51409,120.394927,23.512333,120.403038,849.7786358841718
C0R810,內獅,屏東縣,獅子鄉,22.306856,120.634956,22.305064,120.642986,849.7725818139958
V2K610,大庄合作社,雲林縣,二崙鄉,23.80855,120.359808,23.8068,120.367939,849.7698681505622
CAQ030,崎峰國小,屏東縣,林邊鄉,22.427434,120.487171,22.42565,120.49521,849.7686311126214
C2K620,馬光農場,雲林縣,虎尾鎮,23.723205,120.370739,23.721453,120.378864,849.754561572092
C0K510,水林,雲林縣,水林鄉,23.574658,120.237839,23.572911,120.245956,849.7481969492303
C0R590,里港,屏東縣,里港鄉,22.780972,120.486528,22.779194,120.494589,849.7449206931398
C2V580,瑞山,高雄市,內門區,22.904811,120.42617,22.90304,120.43424,849.7293071241653
CAN060,國三S311K,臺南市,白河區,23.34815,120.430789,23.346388,120.438888,849.7252348221473
V2C250,八德合作社,桃園市,八德區,24.939471,121.258178,24.93775,121.266389,849.720801416137
C2O930,玉井,臺南市,玉井區,23.127833,120.452472,23.126042,120.46055,849.715182992444
A2N290,蘭花園區,臺南市,後壁區,23.342018,120.371562,23.340258,120.379661,849.7111436985796
C0K420,西螺,雲林縣,西螺鎮,23.80215,120.459253,23.8004,120.467383,849.7105126305398
C0M660,溪口,嘉義縣,溪口鄉,23.605872,120.395439,23.604119,120.403556,849.709457431482
C2M9D0,何竹子腳,嘉義縣,民雄鄉,23.538166,120.373918,23.53641,120.38203,849.7050661402623
C0V910,大樹,高雄市,大樹區,22.686423,120.424748,22.684645,120.432803,849.7021618259502
CAG100,王功漁港,彰化縣,芳苑鄉,23.969984,120.317718,23.96824,120.32586,849.7011193703283
C2K300,鹿南,雲林縣,元長鄉,23.640303,120.355481,23.63855,120.3636,849.6962128920011
CAL030,國一N268K,嘉義縣,水上鄉,23.46259,120.367726,23.460833,120.375833,849.6959937624682
C0R580,南州,屏東縣,南州鄉,22.487694,120.494694,22.485911,120.502736,849.6931840691476
C2K290,崙內,雲林縣,土庫鎮,23.697001,120.347887,23.69525,120.35601,849.6925736055662
C0M760,民雄,嘉義縣,民雄鄉,23.553497,120.420331,23.551742,120.428444,849.6848873770248
C0M670,大林,嘉義縣,大林鎮,23.602361,120.450281,23.600606,120.458397,849.6828910016621
C2R170,屏東,屏東縣,屏東市,22.662048,120.485974,22.660269,120.494027,849.6713084061535
C0M740,六腳,嘉義縣,六腳鄉,23.494611,120.2825,23.492864,120.290611,849.6426932933482
C2K250,崙背,雲林縣,崙背鄉,23.757278,120.310803,23.75553,120.31893,849.6402798066262
CAG090,西濱N210K,彰化縣,大城鄉,23.845282,120.285103,23.843536,120.293236,849.6381881238106
C0V900,汕尾,高雄市,林園區,22.479984,120.407094,22.478205,120.415136,849.634252533964
C0S830,長濱,臺東縣,長濱鄉,23.288611,121.403889,23.286817,121.411975,849.6222078770776
CAV280,國三S378K,高雄市,田寮區,22.82773,120.407455,22.825958,120.415519,849.613226858428
CAN070,國三S329K,臺南市,官田區,23.214538,120.347743,23.212777,120.355833,849.6123058080476
C2N190,烏樹,臺南市,後壁區,23.32569,120.361793,23.32393,120.36989,849.6113353962486
C0V680,仁武,高雄市,仁武區,22.702861,120.339667,22.701083,120.347722,849.6057439028123
CAN080,國三N336K,臺南市,官田區,23.156484,120.336914,23.154722,120.345,849.5891874370982
C0V730,大寮,高雄市,大寮區,22.607389,120.387667,22.605614,120.395717,849.5880798463284
C0K480,莿桐,雲林縣,莿桐鄉,23.762947,120.494247,23.761192,120.502372,849.585545098655
C0X200,左鎮,臺南市,左鎮區,23.058528,120.400444,23.056758,120.408522,849.5854147053676
12Q970,東港工作站,屏東縣,東港鎮,22.481778,120.458017,22.479997,120.466058,849.5757378250089
C0R640,東港,屏東縣,東港鎮,22.464244,120.432703,22.462467,120.440744,849.5738768491909
C0K590,雲林東勢,雲林縣,東勢鄉,23.675939,120.2476,23.674194,120.255722,849.5706374639944
C2M980,安和,嘉義縣,新港鄉,23.515523,120.30782,23.51377,120.31593,849.5684752458131
C0O860,大內,臺南市,大內區,23.120611,120.35275,23.118847,120.360833,849.5572291185618
C0R150,三地門,屏東縣,內埔鄉,22.711667,120.631889,22.709889,120.639944,849.5540649127281
C0AC40,大屯山,臺北市,北投區,25.177333,121.514167,25.175675,121.522408,849.5502594838609
C0K530,臺西,雲林縣,臺西鄉,23.703283,120.189422,23.701544,120.197547,849.547297964003
C0G970,三豐,彰化縣,大城鄉,23.883719,120.281409,23.881975,120.289544,849.5464106094792
C0AI10,屈尺,新北市,新店區,24.923619,121.536533,24.921836,121.544725,849.5405042561107
C0G740,大城,彰化縣,大城鄉,23.854225,120.312789,23.852481,120.320922,849.5318265166982
C2N160,西拉雅風管處,臺南市,官田區,23.191241,120.327209,23.189481,120.335297,849.5279879494392
V2K620,麥寮合作社,雲林縣,麥寮鄉,23.755583,120.286657,23.753836,120.294783,849.526251973715
C0M710,東石,嘉義縣,東石鄉,23.460653,120.145722,23.458911,120.153831,849.5244407644883
CAN010,國一N288K,臺南市,新營區,23.307846,120.281937,23.30609,120.290033,849.5176051819195
CAL040,國一N273K,嘉義縣,水上鄉,23.418417,120.346896,23.416666,120.355,849.513958506773
CAJ030,西濱N222K,雲林縣,麥寮鄉,23.73948,120.248007,23.737734,120.256132,849.5012932342419
CAP030,國一N351K,高雄市,橋頭區,22.767602,120.320828,22.765833,120.328888,849.491631404996
CAP020,國一S346K,高雄市,岡山區,22.81399,120.306103,22.812222,120.314166,849.491593005392
C0E830,苑裡,苗栗縣,苑裡鎮,24.441458,120.644883,24.439714,120.653053,849.4869330851327
C0V840,鳳鼻頭,高雄市,小港區,22.510051,120.351098,22.508275,120.359141,849.4819323225037
CAN090,國三S342K,臺南市,善化區,23.108456,120.319446,23.106694,120.327528,849.4792204112608
C0K500,元長,雲林縣,元長鄉,23.651544,120.306892,23.649797,120.315011,849.4742349220467
C0K550,蔦松,雲林縣,水林鄉,23.516064,120.221625,23.514319,120.229736,849.4607491200671
C2N170,茅港尾,臺南市,下營區,23.207857,120.254311,23.2061,120.2624,849.4506666790205
CAP040,國一N361K,高雄市,仁武區,22.682326,120.320557,22.680555,120.328611,849.4455978510177
C0K410,北港,雲林縣,北港鎮,23.575803,120.283672,23.574056,120.291786,849.4435306119959
CAP010,國一S342K,高雄市,路竹區,22.847321,120.286935,22.845555,120.295,849.4426576946815
C0X250,新營,臺南市,新營區,23.312447,120.308586,23.310689,120.316681,849.441539402697
C0W220,北竿,連江縣,北竿鄉,26.222038,119.966574,26.220358,119.974881,849.4390391860042
CAN140,六官養殖協會,臺南市,六甲區,23.230568,120.29153,23.22881,120.29962,849.438905195758
C0V890,前鎮,高雄市,前鎮區,22.573925,120.303144,22.572152,120.311191,849.432158869467
42HA10,萬大發電廠,南投縣,仁愛鄉,23.980611,121.131497,23.978875,121.139639,849.4320692340671
C0E740,造橋,苗栗縣,造橋鄉,24.63875,120.856583,24.637056,120.864778,849.431841975417
C2X060,下營,臺南市,下營區,23.228563,120.248201,23.226806,120.256291,849.425402520835
C0M690,水上,嘉義縣,水上鄉,23.421475,120.380792,23.419719,120.388894,849.4243633600114
CAN040,國一N323K,臺南市,永康區,23.01355,120.241377,23.011789,120.249453,849.4234134489809
467441,高雄,高雄市,楠梓區,22.732201,120.304459,22.730432,120.312516,849.400631750005
C0M780,鹿草,嘉義縣,鹿草鄉,23.413075,120.300231,23.411322,120.308333,849.3988233884654
C2K280,四湖,雲林縣,四湖鄉,23.632147,120.219053,23.6304,120.22717,849.3952050405417
C2M920,朴子農改,嘉義縣,朴子市,23.47164,120.251277,23.469889,120.259383,849.3883520740732
CAJ040,西濱S241K,雲林縣,口湖鄉,23.625171,120.164529,23.623426,120.172646,849.3872448353231
C0K291,宜梧,雲林縣,口湖鄉,23.538014,120.1612,23.536267,120.169311,849.3773165061458
C0V850,蚵仔寮,高雄市,梓官區,22.727414,120.244618,22.725647,120.252675,849.3772884476855
C0X240,關子嶺,臺南市,白河區,23.332933,120.499931,23.331169,120.508025,849.3720268195216
467990,馬祖,連江縣,南竿鄉,26.171145,119.914855,26.169467,119.923158,849.3540611967667
A2K360,水試臺西試驗場,雲林縣,臺西鄉,23.718974,120.182399,23.717231,120.190522,849.3535554731598
C0V760,橋頭,高雄市,橋頭區,22.759583,120.297694,22.757806,120.30575,849.3463774930544
CAL110,布袋國中,嘉義縣,布袋鎮,23.360676,120.17216,23.35893,120.18026,849.3401296734135
467420,永康,臺南市,永康區,23.040146,120.228623,23.038386,120.2367,849.3386951771465
C0T820,天祥,花蓮縣,秀林鄉,24.181389,121.4875,24.179597,121.495639,849.3147059601916
C0V860,南寮,高雄市,彌陀區,22.763381,120.225866,22.761616,120.233925,849.3138361230033
CAP070,高雄燈塔,高雄市,旗津區,22.616364,120.256631,22.614594,120.26468,849.3067843007722
C0W110,東莒,連江縣,莒光鄉,25.966883,119.9724,25.965197,119.980686,849.3030846104227
CAL090,西濱S257K,嘉義縣,東石鄉,23.504025,120.163753,23.502278,120.171861,849.2873694537055
467410,臺南,臺南市,中西區,22.995039,120.196846,22.99328,120.20492,849.2832813548683
C0F970,大坑,臺中市,北屯區,24.174889,120.714139,24.173142,120.722289,849.2817490196254
A2K570,古坑(花卉中心),雲林縣,古坑鄉,23.6353,120.54428,23.63353,120.55239,849.2707708740081
C0K600,箔子寮,雲林縣,口湖鄉,23.621487,120.13192,23.619744,120.140036,849.2599134466843
CAJ050,海口故事園區,雲林縣,口湖鄉,23.577174,120.133097,23.57543,120.14121,849.2596688756734
CAA990,國一N039K,新北市,泰山區,25.066207,121.373771,25.064433,121.381972,849.2575693363154
C0M880,好美里,嘉義縣,布袋鎮,23.338176,120.129936,23.336427,120.138033,849.2547509990185
C0V880,興達,高雄市,茄萣區,22.879517,120.204681,22.877755,120.212747,849.2491119637195
CAN020,國一S306K,臺南市,麻豆區,23.154587,120.222474,23.152831,120.230558,849.2479519152912
C0V870,文安,高雄市,彌陀區,22.804288,120.208308,22.802525,120.216369,849.2208752452327
C0N040,蘆竹溝,臺南市,北門區,23.236154,120.088035,23.234405,120.096125,849.1754578232221
CAN110,西濱S280K,臺南市,北門區,23.30695,120.140816,23.3052,120.14891,849.1711005038976
C0SA40,瑞和,臺東縣,鹿野鄉,22.976119,121.148625,22.974361,121.156697,849.1710828477793
12J990,口湖工作站,雲林縣,口湖鄉,23.591722,120.172281,23.589978,120.180394,849.1704469964561
C0N010,鯤鯓國小,臺南市,將軍區,23.189624,120.080813,23.187875,120.0889,849.1572506660852
C0K460,斗南,雲林縣,斗南鎮,23.680478,120.470231,23.678725,120.478347,849.1516126362575
C0N050,蚵寮,臺南市,北門區,23.302745,120.102281,23.300997,120.110375,849.1455977944535
CAN130,水試所海水繁養殖中心,臺南市,七股區,23.122553,120.071594,23.120802,120.079676,849.113424288264
C0FB30,八仙山苗圃,臺中市,和平區,24.1944,120.9932,24.192719,121.001366,849.0926736549749
C0N030,四草,臺南市,安南區,23.025295,120.103558,23.023541,120.111633,849.0746388191011
C0N020,城西,臺南市,安南區,23.058558,120.087492,23.056805,120.095569,849.0496862855617
C0SA10,檳榔四格山,臺東縣,卑南鄉,22.811789,121.101247,22.810031,121.109308,849.0484247907592
C0O970,虎頭埤,臺南市,新化區,23.023139,120.339806,23.021375,120.347878,849.0449210876485
CAN120,西濱N304K,臺南市,七股區,23.10519,120.078614,23.103439,120.086694,849.018378509009
C0X260,後壁,臺南市,後壁區,23.368094,120.354211,23.366342,120.362306,848.9511275088227
C0F9P0,清水,臺中市,清水區,24.314028,120.554083,24.312297,120.562242,848.8846428465454
C0K430,褒忠,雲林縣,褒忠鄉,23.692672,120.295503,23.690928,120.303619,848.8473018974042
C0V620,永安,高雄市,永安區,22.824944,120.228806,22.82315,120.236856,848.8056760299412
C0AC80,文山,臺北市,文山區,25.004083,121.567528,25.00235,121.575728,848.5194191580115
C0W200,湖西,澎湖縣,湖西鄉,23.598035,119.664639,23.596314,119.67275,848.3526776472064
C0G860,社頭,彰化縣,社頭鄉,23.899417,120.578083,23.897647,120.5862,848.3333573821403
467300,東吉島,澎湖縣,望安鄉,23.258999,119.659533,23.25727,119.66762,848.2324485784911
C0A970,三貂角,新北市,貢寮區,25.009444,121.993889,25.007606,122.002058,848.1800686421939
C0W160,烏坵,金門縣,烏坵鄉,24.996081,119.441347,24.9944,119.449556,848.1620176799944
CAN150,國一N315K,臺南市,新市區,23.08526,120.24383,23.0835,120.251897,848.0737977094451
C2W230,畜試所澎湖,澎湖縣,西嶼鄉,23.630055,119.505094,23.628342,119.513206,848.0549666560314
467350,澎湖,澎湖縣,馬公市,23.56722,119.554987,23.565503,119.563094,848.0442974936878
C0W120,西嶼,澎湖縣,西嶼鄉,23.564311,119.460328,23.5626,119.468436,848.0114830358523
C0F0A0,雪山圈谷,臺中市,和平區,24.390375,121.228197,24.388594,121.236339,848.0038205894455
C0F9R0,龍井,臺中市,龍井區,24.186278,120.520833,24.184536,120.528972,847.9965763311375
C0U750,龜山島,宜蘭縣,頭城鎮,24.843392,121.944947,24.841667,121.953133,847.9914227348379
C0W190,望安,澎湖縣,望安鄉,23.382282,119.485981,23.380564,119.494075,847.905847772637
C0V640,湖內,高雄市,湖內區,22.888889,120.236444,22.887139,120.2445,847.8896105441837
C0R220,潮州,屏東縣,潮州鎮,22.536139,120.531972,22.534361,120.54,847.8837916080848
C0W180,七美,澎湖縣,七美鄉,23.221053,119.436809,23.219333,119.444892,847.836867646579
C0V790,萬山,高雄市,茂林區,22.907694,120.68,22.905944,120.688056,847.7782719634992
CAD090,國三S103K,新竹市,東區,24.76037,120.952631,24.75861,120.9608,847.7484015338763
C0M650,朴子,嘉義縣,朴子市,23.436364,120.230928,23.434628,120.239019,847.732406313429
C0G770,福興,彰化縣,福興鄉,24.042972,120.429528,24.041289,120.437669,847.6219359057072
C0V750,路竹,高雄市,路竹區,22.856639,120.251361,22.854997,120.259439,847.6065360148222
C0W130,花嶼,澎湖縣,望安鄉,23.401778,119.314667,23.400069,119.322761,847.5624246864562
C0R790,九棚,屏東縣,滿州鄉,22.143756,120.886331,22.142069,120.894356,847.5458957159115
CAH030,茶改場竹圍站,南投縣,名間鄉,23.861844,120.629392,23.86008,120.6375,847.5215153175317
C0U710,太平山,宜蘭縣,大同鄉,24.507222,121.5175,24.505486,121.525656,847.4842954748459
C0E810,西湖,苗栗縣,西湖鄉,24.564417,120.740278,24.562947,120.7485,847.4191376445674
C0F850,東勢,臺中市,東勢區,24.248194,120.824917,24.246428,120.833047,847.3322981779684
C0V820,小林,高雄市,甲仙區,23.150164,120.625189,23.148408,120.63325,846.98610662652
C0X180,山上,臺南市,山上區,23.077444,120.355194,23.0757,120.363253,846.915006421566
C0R600,舊泰武,屏東縣,泰武鄉,22.58995,120.656922,22.588194,120.664944,846.4042589290975
C0S790,金崙,臺東縣,太麻里鄉,22.54,120.958889,22.538122,120.966875,846.3424695770192
C0G830,埤頭,彰化縣,埤頭鄉,23.867806,120.444722,23.866003,120.452806,846.1277203734219
C0G800,埔鹽,彰化縣,埔鹽鄉,24.002167,120.423583,24.000394,120.431683,846.092337261903
C0V770,大社,高雄市,大社區,22.731944,120.338583,22.730306,120.346639,846.0469628086822
C0V630,茄萣,高雄市,茄萣區,22.908444,120.174583,22.906642,120.182608,846.0346330036831
C2W030,金門(東),金門縣,金湖鎮,24.450074,118.443627,24.448431,118.451786,845.8509901249137
C0W140,金沙,金門縣,金沙鎮,24.489931,118.400617,24.488292,118.408778,845.6973849634174
CAL080,國三N303K,嘉義縣,中埔鄉,23.413742,120.444389,23.411969,120.452447,845.5412932679633
C0W150,金寧,金門縣,金寧鄉,24.459339,118.320831,24.457703,118.328989,845.5250375928046
467110,金門,金門縣,金城鎮,24.408942,118.281127,24.407306,118.289281,845.4518065997221
C0D430,峨眉,新竹縣,峨眉鄉,24.692389,121.009083,24.6905,121.017189,845.4447608380859
C0D550,雪霸,新竹縣,五峰鄉,24.528722,121.107917,24.526972,121.11605,845.4384336637748
C2F000,大肚,臺中市,大肚區,24.154667,120.564,24.15295,120.572117,845.3904166781343
C0W240,九宮,金門縣,烈嶼鄉,24.425386,118.232031,24.423753,118.240186,845.3739083773987
C0X140,西港,臺南市,西港區,23.127417,120.195083,23.125608,120.203108,844.9241593486348
C0G650,員林,彰化縣,員林市,23.948333,120.577528,23.946503,120.585597,844.867662686783
CAN100,國三S366K,臺南市,關廟區,22.909476,120.343284,22.9077,120.3513,844.4521364619101
C0S750,向陽,臺東縣,海端鄉,23.25,120.978056,23.248397,120.986133,844.2225293635715
C0R490,九如,屏東縣,九如鄉,22.742278,120.4825,22.7405,120.490503,844.18903072565
C0C480,桃園,桃園市,桃園區,24.994256,121.315044,24.992425,121.323172,844.0809617029399
C0S770,大溪山,臺東縣,太麻里鄉,22.48,120.935278,22.478475,120.943325,844.0082131260394
C0R480,長治,屏東縣,長治鄉,22.694833,120.534611,22.693128,120.542622,843.4017199522046
C0V700,三民,高雄市,三民區,22.646917,120.303278,22.645017,120.311233,843.2527874326349
C0E820,獅潭,苗栗縣,獅潭鄉,24.541028,120.911972,24.539133,120.920042,843.0450062001958
C0D560,竹東,新竹縣,竹東鎮,24.76925,121.049861,24.767147,121.057881,842.837366027943
C0V610,梓官,高雄市,梓官區,22.762444,120.25925,22.760558,120.267211,842.7931913058445
C0UB90,太平山莊,宜蘭縣,大同鄉,24.4959,121.5281,24.494171,121.536209,842.7486221021089
C0V720,林園,高雄市,林園區,22.509583,120.386556,22.507747,120.394511,842.2875485523556
CAL100,西濱S267K,嘉義縣,東石鄉,23.417568,120.15477,23.41613,120.162872,842.0226499074221
C0R520,崁頂,屏東縣,崁頂鄉,22.516639,120.498972,22.514781,120.506914,841.5489037721671
C0F9O0,潭子,臺中市,潭子區,24.21475,120.695833,24.213106,120.703933,841.5326236359139
468100,東沙島,高雄市,旗津區,20.70252,116.722116,20.700856,116.73,840.6727012412719
C0X110,臺南市南區,臺南市,南區,22.963028,120.180417,22.961189,120.188378,840.3399794413479
C0V530,阿蓮,高雄市,阿蓮區,22.884944,120.319528,22.883208,120.327508,839.9778180568802
C0A950,鼻頭角,新北市,瑞芳區,25.130833,121.915278,25.129036,121.923372,838.9656843681506
C0FA60,鞍馬山工作站,臺中市,和平區,24.2681,120.9926,24.267064,121.000793,838.4698913013385
72D680,桃改新埔分場,新竹縣,新埔鎮,24.836,121.058,24.834444,121.066111,836.5808648947745
C0G820,田尾,彰化縣,田尾鄉,23.903417,120.501389,23.901669,120.509389,836.1714938521528
C0X160,仁德,臺南市,仁德區,22.970111,120.249778,22.968258,120.257689,835.7169230763498
C0E730,頭份,苗栗縣,頭份市,24.69,120.904167,24.688247,120.912206,835.2463300931129
C0R440,大漢山,屏東縣,春日鄉,22.405861,120.745083,22.405264,120.753181,835.1227498237777
C0E850,大河,苗栗縣,三灣鄉,24.619833,120.94055,24.618069,120.948578,834.895674009144
C0F9I0,神岡,臺中市,神岡區,24.274222,120.650306,24.272481,120.658314,834.4940449495609
C0Z080,富源,花蓮縣,光復鄉,23.58975,121.370389,23.587642,121.378225,832.2093875869268
C0X100,臺南市北區,臺南市,北區,23.012167,120.186333,23.010394,120.194228,831.7320775343873
C0X130,官田,臺南市,官田區,23.195028,120.307528,23.193217,120.315422,831.578007647086
469020,南沙島,高雄市,旗津區,10.372116,114.356938,10.370203,114.364286,831.3843918843988
C0X150,安定,臺南市,安定區,23.104417,120.219972,23.102614,120.227839,829.2128240064751
C0S660,下馬,臺東縣,海端鄉,23.152222,121.062222,23.150194,121.070025,829.0405677777761
C2H950,中寮,南投縣,中寮鄉,23.886278,120.758528,23.884447,120.766406,826.4424404375982
C2A920,富貴角,新北市,石門區,25.265556,121.557278,25.263783,121.565258,826.3212400489422
C0O980,新市,臺南市,新市區,23.063556,120.290417,23.061614,120.298197,824.7278596230343
C0F9U0,南屯,臺中市,南屯區,24.138861,120.630111,24.137006,120.637969,823.617384526652
C0U780,五結,宜蘭縣,五結鄉,24.688722,121.790222,24.686369,121.797944,822.8701872796212
C0S740,池上,臺東縣,池上鄉,23.121389,121.201667,23.119628,121.209469,821.5400387890433
C0R140,瑪家,屏東縣,瑪家鄉,22.684722,120.678889,22.682903,120.686639,820.4243511755149
C2F9A0,中竹林,臺中市,太平區,24.105556,120.743333,24.103556,120.751061,815.3005251556453
C0O900,善化,臺南市,善化區,23.114444,120.289444,23.112883,120.297219,813.8668811307716
C2A880,福隆,新北市,貢寮區,25.019167,121.934167,25.017842,121.942083,811.1223171743667
C0UB60,明池,宜蘭縣,大同鄉,24.6506,121.4673,24.650688,121.475277,806.2268769799161
C0G810,埔心,彰化縣,埔心鄉,23.948694,120.517611,23.947633,120.525456,805.9106772826584
C2G840,北斗,彰化縣,北斗鎮,23.879222,120.506528,23.877586,120.514222,803.1782296981332
C0C690,國一五楊N44K,桃園市,龜山區,25.065633,121.332769,25.063861,121.340164,770.4722174096806
C2F860,梨山,臺中市,和平區,24.245,121.237667,24.247522,121.243669,670.0300348334279
C0S810,東河,臺東縣,東河鄉,22.973611,121.298333,22.972672,121.303986,588.073899131666
C0F9Z0,雪山東峰,臺中市,和平區,24.390581,121.263286,24.388792,121.268675,580.8774458332432
